[
  {
    "codigo":"MINSA001",
    "nombre":"Hospital Regional del Cusco",
    "categoria":"III-1",
    "tipo":"Hospital",
    "departamento":"Cusco",
    "provincia":"Cusco",
    "distrito":"Cusco",
    "direccion":"Av. de la Cultura s\/n",
    "lat":-13.5226,
    "lon":-71.9673,
    "telefono":"(084) 223030",
    "emergencia":true,
    "uci":true,
    "ambulancia":true
  },
  {
    "codigo":"ESSALUD001",
    "nombre":"Hospital Nacional Adolfo Guevara Velasco - EsSalud",
    "categoria":"III-1",
    "tipo":"Hospital",
    "departamento":"Cusco",
    "provincia":"Cusco",
    "distrito":"Cusco",
    "direccion":"Av. de la Cultura 705",
    "lat":-13.5188,
    "lon":-71.9644,
    "telefono":"(084) 249090",
    "emergencia":true,
    "uci":true,
    "ambulancia":true
  },
  {
    "codigo":"MINSA002",
    "nombre":"Hospital Antonio Lorena",
    "categoria":"II-2",
    "tipo":"Hospital",
    "departamento":"Cusco",
    "provincia":"Cusco",
    "distrito":"Cusco",
    "direccion":"Av. de la Cultura 720",
    "lat":-13.5195,
    "lon":-71.965,
    "telefono":"(084) 226511",
    "emergencia":true,
    "uci":false,
    "ambulancia":true
  },
  {
    "codigo":"MINSA003",
    "nombre":"Hospital Quillabamba",
    "categoria":"II-1",
    "tipo":"Hospital",
    "departamento":"Cusco",
    "provincia":"La Convenci\u00f3n",
    "distrito":"Santa Ana",
    "direccion":"Jr. Espinar s\/n",
    "lat":-12.8592,
    "lon":-72.6945,
    "telefono":"(084) 281045",
    "emergencia":true,
    "uci":false,
    "ambulancia":true
  },
  {
    "codigo":"MINSA004",
    "nombre":"Hospital Sicuani",
    "categoria":"II-1",
    "tipo":"Hospital",
    "departamento":"Cusco",
    "provincia":"Canchis",
    "distrito":"Sicuani",
    "direccion":"Av. Centenario s\/n",
    "lat":-14.2694,
    "lon":-71.2259,
    "telefono":"(084) 351031",
    "emergencia":true,
    "uci":false,
    "ambulancia":true
  }
]